[
  {
    "business_id": "snip-philadelphia-1",
    "name": "Snip Philadelphia",
    "address": "2052 Fairmount Ave",
    "city": "Philadelphia",
    "state": "PA",
    "postal_code": "19130",
    "latitude": 39.9652,
    "longitude": -75.1734,
    "stars": 4.5,
    "review_count": 125,
    "is_open": 1,
    "categories": "Hair Salons, Beauty & Spas",
    "hours": {
      "Monday": "9:0-18:0",
      "Tuesday": "9:0-18:0",
      "Wednesday": "9:0-18:0",
      "Thursday": "9:0-18:0",
      "Friday": "9:0-18:0",
      "Saturday": "9:0-16:0"
    },
    "attributes": {
      "RestaurantsPriceRange2": 2,
      "ByAppointmentOnly": "True"
    }
  },
  {
    "business_id": "smilies-edmonton-1",
    "name": "Smilies",
    "address": "15003 118 Ave",
    "city": "Edmonton",
    "state": "AB",
    "postal_code": "T5V 1H9",
    "latitude": 53.5461,
    "longitude": -113.4938,
    "stars": 3.5,
    "review_count": 45,
    "is_open": 1,
    "categories": "Restaurants, Fast Food",
    "hours": {
      "Monday": "11:0-22:0",
      "Tuesday": "11:0-22:0",
      "Wednesday": "11:0-22:0",
      "Thursday": "11:0-22:0",
      "Friday": "11:0-23:0",
      "Saturday": "11:0-23:0",
      "Sunday": "12:0-21:0"
    },
    "attributes": {
      "RestaurantsPriceRange2": 1,
      "ByAppointmentOnly": "False"
    }
  },
  {
    "business_id": "paper-source-chicago-1",
    "name": "Paper Source",
    "address": "232 W Chicago Ave",
    "city": "Chicago",
    "state": "IL",
    "postal_code": "60654",
    "latitude": 41.8961,
    "longitude": -87.6357,
    "stars": 4.2,
    "review_count": 89,
    "is_open": 1,
    "categories": "Arts & Crafts, Stationery, Gift Shops",
    "hours": {
      "Monday": "10:0-20:0",
      "Tuesday": "10:0-20:0",
      "Wednesday": "10:0-20:0",
      "Thursday": "10:0-20:0",
      "Friday": "10:0-20:0",
      "Saturday": "10:0-20:0",
      "Sunday": "11:0-18:0"
    },
    "attributes": {
      "RestaurantsPriceRange2": 2,
      "ByAppointmentOnly": "False"
    }
  },
  {
    "business_id": "trendy-chelsea-blueground-1",
    "name": "Trendy Chelsea 1BR w/ Balcony, Gym + Doorman by Blueground",
    "address": "123 W 23rd St",
    "city": "New York",
    "state": "NY",
    "postal_code": "10011",
    "latitude": 40.7431,
    "longitude": -73.9937,
    "stars": 2.0,
    "review_count": 15,
    "is_open": 1,
    "categories": "Hotels & Travel, Vacation Rentals",
    "hours": {},
    "attributes": {
      "RestaurantsPriceRange2": 4,
      "ByAppointmentOnly": "True"
    }
  },
  {
    "business_id": "cafe-nearby-chicago-1",
    "name": "Corner Cafe",
    "address": "150 W Chicago Ave",
    "city": "Chicago",
    "state": "IL",
    "postal_code": "60654",
    "latitude": 41.8965,
    "longitude": -87.6340,
    "stars": 4.1,
    "review_count": 65,
    "is_open": 1,
    "categories": "Cafes, Coffee & Tea",
    "hours": {
      "Monday": "7:0-19:0",
      "Tuesday": "7:0-19:0",
      "Wednesday": "7:0-19:0",
      "Thursday": "7:0-19:0",
      "Friday": "7:0-19:0",
      "Saturday": "8:0-20:0",
      "Sunday": "8:0-18:0"
    },
    "attributes": {
      "RestaurantsPriceRange2": 1,
      "ByAppointmentOnly": "False"
    }
  },
  {
    "business_id": "bookstore-chicago-1",
    "name": "River North Books",
    "address": "300 W Chicago Ave",
    "city": "Chicago",
    "state": "IL",
    "postal_code": "60654",
    "latitude": 41.8955,
    "longitude": -87.6375,
    "stars": 4.7,
    "review_count": 132,
    "is_open": 1,
    "categories": "Bookstores, Shopping",
    "hours": {
      "Monday": "10:0-21:0",
      "Tuesday": "10:0-21:0",
      "Wednesday": "10:0-21:0",
      "Thursday": "10:0-21:0",
      "Friday": "10:0-21:0",
      "Saturday": "10:0-21:0",
      "Sunday": "11:0-19:0"
    },
    "attributes": {
      "RestaurantsPriceRange2": 2,
      "ByAppointmentOnly": "False"
    }
  },
  {
    "business_id": "restaurant-chicago-1",
    "name": "Chicago Grill House",
    "address": "180 W Chicago Ave",
    "city": "Chicago",
    "state": "IL",
    "postal_code": "60654",
    "latitude": 41.8958,
    "longitude": -87.6345,
    "stars": 3.8,
    "review_count": 87,
    "is_open": 1,
    "categories": "Restaurants, American",
    "hours": {
      "Monday": "11:0-22:0",
      "Tuesday": "11:0-22:0",
      "Wednesday": "11:0-22:0",
      "Thursday": "11:0-22:0",
      "Friday": "11:0-23:0",
      "Saturday": "11:0-23:0",
      "Sunday": "12:0-21:0"
    },
    "attributes": {
      "RestaurantsPriceRange2": 3,
      "ByAppointmentOnly": "False"
    }
  }
]
